{"latitude": "53.4692815", "user_id": 7, "name": "Frank Kehoe", "longitude": "-9.436036"}
{"latitude": "54.0894797", "user_id": 8, "name": "Eoin Ahearn", "longitude": "-6.18671"}
{"latitude": "54.1225", "user_id": 27, "name": "Enid Gallagher", "longitude": "-8.143333"}
{"latitude": "52.966", "user_id": 15, "name": "Michael Ahearn", "longitude": "-6.463"}
{"latitude": "54.180238", "user_id": 17, "name": "Patricia Cahill", "longitude": "-5.920898"}
{"latitude": "53.0033946", "user_id": 39, "name": "Lisa Ahearn", "longitude": "-6.3877505"}
{"latitude": "52.228056", "user_id": 18, "name": "Bob Larkin", "longitude": "-7.915833"}
{"latitude": "55.033", "user_id": 19, "name": "Enid Cahill", "longitude": "-8.112"}
{"latitude": "51.802", "user_id": 21, "name": "David Ahearn", "longitude": "-9.442"}
{"latitude": "54.374208", "user_id": 22, "name": "Charlie McArdle", "longitude": "-8.371639"}
{"latitude": "53.74452", "user_id": 29, "name": "Oliver Ahearn", "longitude": "-7.11167"}
{"latitude": "52.833502", "user_id": 25, "name": "David Behan", "longitude": "-8.522366"}